[
  {
    "bin": "990141006180",
    "name": "Филиал Автоматика",
    "coordinates": {
      "latitude": 43.14567736245211,
      "longitude": 74.62725329657744
    },
    "city": "г. Астана"
  },
  {
    "bin": "990241009317",
    "name": "Филиал Балхаш",
    "coordinates": {
      "latitude": 50.42252384635516,
      "longitude": 80.25013211389944
    },
    "city": "г. Семей"
  },
  {
    "bin": "990141006051",
    "name": "Филиал Высота",
    "coordinates": {
      "latitude": 49.80395323764028,
      "longitude": 73.10249485666546
    },
    "city": "г. Караганда"
  },
  {
    "bin": "000141005910",
    "name": "Филиал Заря",
    "coordinates": {
      "latitude": 42.43377189953616,
      "longitude": 68.81255817073628
    },
    "city": "г. Арыс"
  },
  {
    "bin": "990141006100",
    "name": "Филиал \"Комета\"",
    "coordinates": {
      "latitude": 43.31007636038914,
      "longitude": 76.95569036775075
    },
    "city": "г. Алматы"
  },
  {
    "bin": "990141005965",
    "name": "Филиал \"Орбита\"",
    "coordinates": {
      "latitude": 54.88751341226244,
      "longitude": 69.17239869729174
    },
    "city": "г. Петропавловск"
  },
  {
    "bin": "060441013160",
    "name": "Филиал \"Сигнал\"",
    "coordinates": {
      "latitude": 51.22841016890439,
      "longitude": 51.378230634162875
    },
    "city": "г. Уральск"
  },
  {
    "bin": "990241007886",
    "name": "Филиал \"Стрела\"",
    "coordinates": {
      "latitude": 45.27236613667144,
      "longitude": 77.98183445572582
    },
    "city": "с. Бастобе"
  },
  {
    "bin": "990141006130",
    "name": "Филиал \"Целина\"",
    "coordinates": {
      "latitude": 53.21468837161805,
      "longitude": 63.60396565233981
    },
    "city": "г. Костанай"
  },
  {
    "name": "Филиал \"Целина\"",
    "coordinates": {
      "latitude": 49.58508682679369,
      "longitude": 81.04760153938885
    },
    "city": "г. Шар"
  }
]
